t,x,y,z,vx,vy,vz,speed,roll,pitch,yaw,roll_target,pitch_target,yaw_target,altitude_target,p,q,r,ax,ay,az,m1,m2,m3,m4,thrust_total_n,power_total_w,current_total_a,power_m1_w,power_m2_w,power_m3_w,power_m4_w,current_m1_a,current_m2_a,current_m3_a,current_m4_a
0.000000,0.000000,0.000000,0.000000,0.000000,0.000000,0.000000,0.000000,0.000000,-0.000000,0.000000,0.000000,0.052360,0.000000,10.000000,0.000000,0.000000,0.000000,0.000000,0.000000,11.720630,0.968378,0.968378,1.000000,1.000000,29.066351,686.917202,46.413324,163.458601,163.458601,180.000000,180.000000,11.044500,11.044500,12.162162,12.162162
0.010000,0.000000,0.000000,0.000000,0.000000,0.000000,0.117206,0.117206,0.000000,-0.000000,0.000000,0.000000,0.052360,0.000000,10.000000,0.000000,0.072306,0.000000,0.000000,0.000000,11.912092,0.979032,0.979032,1.000000,1.000000,29.377567,697.826503,47.150439,168.913252,168.913252,180.000000,180.000000,11.413058,11.413058,12.162162,12.162162
0.020000,0.000000,0.000000,0.001172,0.000000,0.000000,0.236327,0.236327,0.000000,0.000723,0.000000,0.000000,0.052360,0.000000,10.000000,0.000000,0.119822,0.000000,0.015864,0.000000,12.033422,0.986407,0.986407,1.000000,1.000000,29.594974,705.517940,47.670131,172.758970,172.758970,180.000000,180.000000,11.672903,11.672903,12.162162,12.162162
0.030000,0.000000,0.000000,0.003535,0.000159,0.000000,0.356661,0.356661,0.000000,0.001921,0.000000,0.000000,0.052360,0.000000,10.000000,0.000000,0.150048,0.000000,0.042320,0.000000,12.105470,0.991512,0.991512,1.000000,1.000000,29.746437,710.910416,48.034488,175.455208,175.455208,180.000000,180.000000,11.855082,11.855082,12.162162,12.162162
0.040000,0.000002,0.000000,0.007102,0.000582,0.000000,0.477716,0.477716,0.000000,0.003422,0.000000,0.000000,0.052360,0.000000,10.000000,0.000000,0.168256,0.000000,0.075547,0.000000,12.142900,0.995040,0.995040,1.000000,1.000000,29.851563,714.669507,48.288480,177.334753,177.334753,180.000000,180.000000,11.982078,11.982078,12.162162,12.162162
0.050000,0.000007,0.000000,0.011879,0.001337,0.000000,0.599145,0.599147,0.000000,0.005104,0.000000,0.000000,0.052360,0.000000,10.000000,0.000000,0.178150,0.000000,0.112824,0.000000,12.156031,0.997468,0.997468,1.000000,1.000000,29.924147,717.272757,48.464375,178.636379,178.636379,180.000000,180.000000,12.070026,12.070026,12.162162,12.162162
0.060000,0.000021,0.000000,0.017871,0.002466,0.000000,0.720705,0.720710,0.000000,0.006886,0.000000,0.000000,0.052360,0.000000,10.000000,0.000000,0.182327,0.000000,0.152247,0.000000,12.152123,0.999129,0.999129,1.000000,1.000000,29.973895,719.060644,48.585179,179.530322,179.530322,180.000000,180.000000,12.130427,12.130427,12.162162,12.162162
0.070000,0.000045,0.000000,0.025078,0.003988,0.000000,0.842227,0.842236,0.000000,0.008709,0.000000,0.000000,0.052360,0.000000,10.000000,0.000000,0.182613,0.000000,0.192403,0.000000,12.124980,1.000000,1.000000,0.999745,0.999745,29.992365,719.725191,48.630081,180.000000,180.000000,179.862596,179.862596,12.162162,12.162162,12.152878,12.152878
0.080000,0.000085,0.000000,0.033500,0.005912,0.000000,0.963476,0.963495,0.000000,0.010535,0.000000,0.000000,0.052360,0.000000,10.000000,0.000000,0.180282,0.000000,0.232220,0.000000,12.067483,1.000000,1.000000,0.998994,0.998994,29.969834,718.914554,48.575308,180.000000,180.000000,179.457277,179.457277,12.162162,12.162162,12.125492,12.125492
0.090000,0.000144,0.000000,0.043135,0.008234,0.000000,1.084151,1.084183,0.000000,0.012338,0.000000,0.000000,0.052360,0.000000,10.000000,0.000000,0.176229,0.000000,0.271398,0.000000,12.015910,1.000000,1.000000,0.998503,0.998503,29.955132,718.385971,48.539593,180.000000,180.000000,179.192985,179.192985,12.162162,12.162162,12.107634,12.107634
0.100000,0.000227,0.000000,0.053976,0.010948,0.000000,1.204310,1.204360,0.000000,0.014100,0.000000,0.000000,0.052360,0.000000,10.000000,0.000000,0.171076,0.000000,0.309563,0.000000,11.968491,1.000000,1.000000,0.998195,0.998195,29.945888,718.053727,48.517144,180.000000,180.000000,179.026864,179.026864,12.162162,12.162162,12.096410,12.096410
0.110000,0.000336,0.000000,0.066019,0.014044,0.000000,1.323995,1.324070,0.000000,0.015811,0.000000,0.000000,0.052360,0.000000,10.000000,0.000000,0.165256,0.000000,0.346475,0.000000,11.923986,1.000000,1.000000,0.998012,0.998012,29.940433,717.857713,48.503900,180.000000,180.000000,178.928856,178.928856,12.162162,12.162162,12.089788,12.089788
0.120000,0.000477,0.000000,0.079259,0.017509,0.000000,1.443235,1.443341,0.000000,0.017464,0.000000,0.000000,0.052360,0.000000,10.000000,0.000000,0.159069,0.000000,0.381988,0.000000,11.881527,1.000000,1.000000,0.997918,0.997918,29.937595,717.755768,48.497011,180.000000,180.000000,178.877884,178.877884,12.162162,12.162162,12.086344,12.086344
0.130000,0.000652,0.000000,0.093692,0.021328,0.000000,1.562050,1.562196,0.000000,0.019054,0.000000,0.000000,0.052360,0.000000,10.000000,0.000000,0.152721,0.000000,0.416024,0.000000,11.840504,1.000000,1.000000,0.997883,0.997883,29.936553,717.718331,48.494482,180.000000,180.000000,178.859166,178.859166,12.162162,12.162162,12.085079,12.085079
0.140000,0.000865,0.000000,0.109312,0.025489,0.000000,1.680455,1.680649,0.000000,0.020582,0.000000,0.000000,0.052360,0.000000,10.000000,0.000000,0.146353,0.000000,0.448549,0.000000,11.800493,1.000000,1.000000,0.997889,0.997889,29.936730,717.724689,48.494911,180.000000,180.000000,178.862344,178.862344,12.162162,12.162162,12.085294,12.085294
0.150000,0.001120,0.000000,0.126117,0.029974,0.000000,1.798460,1.798710,0.000000,0.022045,0.000000,0.000000,0.052360,0.000000,10.000000,0.000000,0.140059,0.000000,0.479559,0.000000,11.761200,1.000000,1.000000,0.997922,0.997922,29.937723,717.760343,48.497320,180.000000,180.000000,178.880171,178.880171,12.162162,12.162162,12.086498,12.086498
0.160000,0.001420,0.000000,0.144101,0.034770,0.000000,1.916072,1.916388,0.000000,0.023446,0.000000,0.000000,0.052360,0.000000,10.000000,0.000000,0.133902,0.000000,0.509075,0.000000,11.722418,1.000000,1.000000,0.997973,0.997973,29.939249,717.815163,48.501025,180.000000,180.000000,178.907581,178.907581,12.162162,12.162162,12.088350,12.088350
0.170000,0.001767,0.000000,0.163262,0.039861,0.000000,2.033297,2.033687,0.000000,0.024785,0.000000,0.000000,0.052360,0.000000,10.000000,0.000000,0.127922,0.000000,0.537127,0.000000,11.684004,1.000000,1.000000,0.998035,0.998035,29.941111,717.882088,48.505547,180.000000,180.000000,178.941044,178.941044,12.162162,12.162162,12.090611,12.090611
0.180000,0.002166,0.000000,0.183595,0.045232,0.000000,2.150137,2.150612,0.000000,0.026064,0.000000,0.000000,0.052360,0.000000,10.000000,0.000000,0.122143,0.000000,0.563759,0.000000,11.645863,1.000000,1.000000,0.998104,0.998104,29.943174,717.956215,48.510555,180.000000,180.000000,178.978107,178.978107,12.162162,12.162162,12.093115,12.093115
0.190000,0.002618,0.000000,0.205096,0.050869,0.000000,2.266595,2.267166,0.000000,0.027285,0.000000,0.000000,0.052360,0.000000,10.000000,0.000000,0.116579,0.000000,0.589018,0.000000,11.607925,1.000000,1.000000,0.998176,0.998176,29.945343,718.034152,48.515821,180.000000,180.000000,179.017076,179.017076,12.162162,12.162162,12.095748,12.095748
0.200000,0.003127,0.000000,0.227762,0.056760,0.000000,2.382675,2.383350,0.000000,0.028451,0.000000,0.000000,0.052360,0.000000,10.000000,0.000000,0.111236,0.000000,0.612955,0.000000,11.570147,1.000000,1.000000,0.998250,0.998250,29.947553,718.113571,48.521187,180.000000,180.000000,179.056786,179.056786,12.162162,12.162162,12.098431,12.098431
0.210000,0.003695,0.000000,0.251589,0.062889,0.000000,2.498376,2.499167,0.000000,0.029563,0.000000,0.000000,0.052360,0.000000,10.000000,0.000000,0.106115,0.000000,0.635621,0.000000,11.532498,1.000000,1.000000,0.998324,0.998324,29.949760,718.192890,48.526547,180.000000,180.000000,179.096445,179.096445,12.162162,12.162162,12.101111,12.101111
0.220000,0.004324,0.000000,0.276573,0.069245,0.000000,2.613701,2.614618,0.000000,0.030625,0.000000,0.000000,0.052360,0.000000,10.000000,0.000000,0.101213,0.000000,0.657070,0.000000,11.494957,1.000000,1.000000,0.998397,0.998397,29.951935,718.271049,48.531828,180.000000,180.000000,179.135525,179.135525,12.162162,12.162162,12.103752,12.103752
0.230000,0.005016,0.000000,0.302710,0.075816,0.000000,2.728651,2.729704,0.000000,0.031637,0.000000,0.000000,0.052360,0.000000,10.000000,0.000000,0.096527,0.000000,0.677353,0.000000,11.457513,1.000000,1.000000,0.998467,0.998467,29.954058,718.347351,48.536983,180.000000,180.000000,179.173676,179.173676,12.162162,12.162162,12.106329,12.106329
0.240000,0.005774,0.000000,0.329996,0.082590,0.000000,2.843226,2.844425,0.000000,0.032602,0.000000,0.000000,0.052360,0.000000,10.000000,0.000000,0.092050,0.000000,0.696522,0.000000,11.420158,1.000000,1.000000,0.998536,0.998536,29.956117,718.421356,48.541983,180.000000,180.000000,179.210678,179.210678,12.162162,12.162162,12.108830,12.108830
0.250000,0.006600,0.000000,0.358429,0.089555,0.000000,2.957427,2.958783,0.000000,0.033523,0.000000,0.000000,0.052360,0.000000,10.000000,0.000000,0.087774,0.000000,0.714626,0.000000,11.382888,1.000000,1.000000,0.998602,0.998602,29.958104,718.492797,48.546811,180.000000,180.000000,179.246399,179.246399,12.162162,12.162162,12.111243,12.111243
0.260000,0.007496,0.000000,0.388003,0.096701,0.000000,3.071256,3.072778,0.000000,0.034400,0.000000,0.000000,0.052360,0.000000,10.000000,0.000000,0.083694,0.000000,0.731713,0.000000,11.345700,1.000000,1.000000,0.998666,0.998666,29.960016,718.561534,48.551455,180.000000,180.000000,179.280767,179.280767,12.162162,12.162162,12.113565,12.113565
0.270000,0.008463,0.000000,0.418715,0.104018,0.000000,3.184713,3.186411,0.000000,0.035237,0.000000,0.000000,0.052360,0.000000,10.000000,0.000000,0.079800,0.000000,0.747829,0.000000,11.308594,1.000000,1.000000,0.998728,0.998728,29.961851,718.627508,48.555913,180.000000,180.000000,179.313754,179.313754,12.162162,12.162162,12.115794,12.115794
0.280000,0.009503,0.000000,0.450562,0.111497,0.000000,3.297799,3.299683,0.000000,0.036035,0.000000,0.000000,0.052360,0.000000,10.000000,0.000000,0.076086,0.000000,0.763019,0.000000,11.271571,1.000000,1.000000,0.998786,0.998786,29.963609,718.690718,48.560184,180.000000,180.000000,179.345359,179.345359,12.162162,12.162162,12.117930,12.117930
0.290000,0.010618,0.000000,0.483540,0.119127,0.000000,3.410515,3.412595,0.000000,0.036796,0.000000,0.000000,0.052360,0.000000,10.000000,0.000000,0.072543,0.000000,0.777326,0.000000,11.234631,1.000000,1.000000,0.998842,0.998842,29.965291,718.751202,48.564270,180.000000,180.000000,179.375601,179.375601,12.162162,12.162162,12.119973,12.119973
0.300000,0.011809,0.000000,0.517646,0.126900,0.000000,3.522861,3.525146,0.000000,0.037521,0.000000,0.000000,0.052360,0.000000,10.000000,0.000000,0.069164,0.000000,0.790791,0.000000,11.197777,1.000000,1.000000,0.998896,0.998896,29.966899,718.809021,48.568177,180.000000,180.000000,179.404511,179.404511,12.162162,12.162162,12.121926,12.121926
0.310000,0.013078,0.000000,0.552874,0.134808,0.000000,3.634839,3.637338,0.000000,0.038213,0.000000,0.000000,0.052360,0.000000,10.000000,0.000000,0.065942,0.000000,0.803453,0.000000,11.161010,1.000000,1.000000,0.998947,0.998947,29.968435,718.864256,48.571909,180.000000,180.000000,179.432128,179.432128,12.162162,12.162162,12.123792,12.123792
0.320000,0.014426,0.000000,0.589223,0.142842,0.000000,3.746449,3.749171,0.000000,0.038873,0.000000,0.000000,0.052360,0.000000,10.000000,0.000000,0.062869,0.000000,0.815348,0.000000,11.124332,1.000000,1.000000,0.998996,0.998996,29.969901,718.916993,48.575473,180.000000,180.000000,179.458497,179.458497,12.162162,12.162162,12.125574,12.125574
0.330000,0.015854,0.000000,0.626687,0.150996,0.000000,3.857692,3.860646,0.000000,0.039501,0.000000,0.000000,0.052360,0.000000,10.000000,0.000000,0.059939,0.000000,0.826514,0.000000,11.087744,1.000000,1.000000,0.999043,0.999043,29.971301,718.967328,48.578874,180.000000,180.000000,179.483664,179.483664,12.162162,12.162162,12.127275,12.127275
0.340000,0.017364,0.000000,0.665264,0.159261,0.000000,3.968570,3.971764,0.000000,0.040101,0.000000,0.000000,0.052360,0.000000,10.000000,0.000000,0.057146,0.000000,0.836984,0.000000,11.051248,1.000000,1.000000,0.999087,0.999087,29.972636,719.015356,48.582119,180.000000,180.000000,179.507678,179.507678,12.162162,12.162162,12.128897,12.128897
0.350000,0.018957,0.000000,0.704950,0.167631,0.000000,4.079082,4.082525,0.000000,0.040672,0.000000,0.000000,0.052360,0.000000,10.000000,0.000000,0.054482,0.000000,0.846792,0.000000,11.014846,1.000000,1.000000,0.999130,0.999130,29.973910,719.061174,48.585214,180.000000,180.000000,179.530587,179.530587,12.162162,12.162162,12.130445,12.130445
0.360000,0.020633,0.000000,0.745741,0.176099,0.000000,4.189231,4.192930,0.000000,0.041217,0.000000,0.000000,0.052360,0.000000,10.000000,0.000000,0.051943,0.000000,0.855967,0.000000,10.978539,1.000000,1.000000,0.999170,0.999170,29.975125,719.104876,48.588167,180.000000,180.000000,179.552438,179.552438,12.162162,12.162162,12.131921,12.131921
0.370000,0.022394,0.000000,0.787633,0.184658,0.000000,4.299016,4.302980,0.000000,0.041736,0.000000,0.000000,0.052360,0.000000,10.000000,0.000000,0.049522,0.000000,0.864540,0.000000,10.942329,1.000000,1.000000,0.999209,0.999209,29.976284,719.146555,48.590983,180.000000,180.000000,179.573278,179.573278,12.162162,12.162162,12.133330,12.133330
0.380000,0.024241,0.000000,0.830623,0.193304,0.000000,4.408439,4.412675,0.000000,0.042232,0.000000,0.000000,0.052360,0.000000,10.000000,0.000000,0.047214,0.000000,0.872540,0.000000,10.906216,1.000000,1.000000,0.999246,0.999246,29.977389,719.186302,48.593669,180.000000,180.000000,179.593151,179.593151,12.162162,12.162162,12.134672,12.134672
0.390000,0.026174,0.000000,0.874707,0.202029,0.000000,4.517501,4.522017,0.000000,0.042704,0.000000,0.000000,0.052360,0.000000,10.000000,0.000000,0.045013,0.000000,0.879993,0.000000,10.870204,1.000000,1.000000,0.999281,0.999281,29.978442,719.224204,48.596230,180.000000,180.000000,179.612102,179.612102,12.162162,12.162162,12.135953,12.135953
0.400000,0.028194,0.000000,0.919882,0.210829,0.000000,4.626203,4.631005,0.000000,0.043154,0.000000,0.000000,0.052360,0.000000,10.000000,0.000000,0.042915,0.000000,0.886925,0.000000,10.834291,1.000000,1.000000,0.999315,0.999315,29.979447,719.260346,48.598672,180.000000,180.000000,179.630173,179.630173,12.162162,12.162162,12.137174,12.137174
0.410000,0.030303,0.000000,0.966144,0.219698,0.000000,4.734546,4.739641,0.000000,0.043583,0.000000,0.000000,0.052360,0.000000,10.000000,0.000000,0.040914,0.000000,0.893361,0.000000,10.798480,1.000000,1.000000,0.999347,0.999347,29.980405,719.294806,48.601000,180.000000,180.000000,179.647403,179.647403,12.162162,12.162162,12.138338,12.138338
0.420000,0.032500,0.000000,1.013490,0.228632,0.000000,4.842531,4.847925,0.000000,0.043992,0.000000,0.000000,0.052360,0.000000,10.000000,0.000000,0.039007,0.000000,0.899325,0.000000,10.762771,1.000000,1.000000,0.999377,0.999377,29.981318,719.327664,48.603221,180.000000,180.000000,179.663832,179.663832,12.162162,12.162162,12.139448,12.139448
0.430000,0.034786,0.000000,1.061915,0.237625,0.000000,4.950159,4.955859,0.000000,0.044382,0.000000,0.000000,0.052360,0.000000,10.000000,0.000000,0.037189,0.000000,0.904839,0.000000,10.727164,1.000000,1.000000,0.999406,0.999406,29.982189,719.358992,48.605337,180.000000,180.000000,179.679496,179.679496,12.162162,12.162162,12.140506,12.140506
0.440000,0.037162,0.000000,1.111417,0.246674,0.000000,5.057431,5.063443,0.000000,0.044754,0.000000,0.000000,0.052360,0.000000,10.000000,0.000000,0.035455,0.000000,0.909924,0.000000,10.691662,1.000000,1.000000,0.999434,0.999434,29.983019,719.388862,48.607356,180.000000,180.000000,179.694431,179.694431,12.162162,12.162162,12.141516,12.141516
0.450000,0.039629,0.000000,1.161991,0.255773,0.000000,5.164347,5.170677,0.000000,0.045109,0.000000,0.000000,0.052360,0.000000,10.000000,0.000000,0.033802,0.000000,0.914600,0.000000,10.656264,1.000000,1.000000,0.999460,0.999460,29.983811,719.417341,48.609280,180.000000,180.000000,179.708671,179.708671,12.162162,12.162162,12.142478,12.142478
0.460000,0.042187,0.000000,1.213635,0.264919,0.000000,5.270910,5.277563,0.000000,0.045447,0.000000,0.000000,0.052360,0.000000,10.000000,0.000000,0.032227,0.000000,0.918889,0.000000,10.620971,1.000000,1.000000,0.999485,0.999485,29.984565,719.444494,48.611114,180.000000,180.000000,179.722247,179.722247,12.162162,12.162162,12.143395,12.143395
0.470000,0.044836,0.000000,1.266344,0.274108,0.000000,5.377120,5.384102,0.000000,0.045769,0.000000,0.000000,0.052360,0.000000,10.000000,0.000000,0.030724,0.000000,0.922807,0.000000,10.585783,1.000000,1.000000,0.999509,0.999509,29.985285,719.470382,48.612864,180.000000,180.000000,179.735191,179.735191,12.162162,12.162162,12.144270,12.144270
0.480000,0.047577,0.000000,1.320115,0.283336,0.000000,5.482977,5.490293,0.000000,0.046076,0.000000,0.000000,0.052360,0.000000,10.000000,0.000000,0.029292,0.000000,0.926372,0.000000,10.550701,1.000000,1.000000,0.999532,0.999532,29.985971,719.495064,48.614531,180.000000,180.000000,179.747532,179.747532,12.162162,12.162162,12.145104,12.145104
0.490000,0.050410,0.000000,1.374945,0.292600,0.000000,5.588484,5.596139,0.000000,0.046369,0.000000,0.000000,0.052360,0.000000,10.000000,0.000000,0.027927,0.000000,0.929602,0.000000,10.515726,1.000000,1.000000,0.999554,0.999554,29.986625,719.518597,48.616121,180.000000,180.000000,179.759298,179.759298,12.162162,12.162162,12.145899,12.145899
0.500000,0.053336,0.000000,1.430830,0.301896,0.000000,5.693642,5.701640,0.000000,0.046648,0.000000,0.000000,0.052360,0.000000,10.000000,0.000000,0.026625,0.000000,0.932513,0.000000,10.480857,1.000000,1.000000,0.999575,0.999575,29.987248,719.541032,48.617637,180.000000,180.000000,179.770516,179.770516,12.162162,12.162162,12.146657,12.146657
0.510000,0.056355,0.000000,1.487766,0.311221,0.000000,5.798450,5.806796,0.000000,0.046915,0.000000,0.000000,0.052360,0.000000,10.000000,0.000000,0.025384,0.000000,0.928480,0.000000,10.304674,0.997013,0.997013,0.996199,0.996199,29.796714,712.694302,48.155020,178.391666,178.391666,177.955485,177.955485,12.053491,12.053491,12.024019,12.024019
0.520000,0.059467,0.000000,1.545750,0.320506,0.000000,5.901497,5.910194,0.000000,0.047168,0.000000,0.000000,0.052360,0.000000,10.000000,0.000000,0.023259,0.000000,0.913384,0.000000,9.901886,0.988504,0.988504,0.987995,0.987995,29.299109,694.915941,46.953780,173.863078,173.863078,173.594892,173.594892,11.747505,11.747505,11.729385,11.729385
0.530000,0.062672,0.000000,1.604765,0.329639,0.000000,6.000516,6.009563,0.000000,0.047401,0.000000,0.000000,0.052360,0.000000,10.000000,0.000000,0.021870,0.000000,0.897934,0.000000,9.505611,0.980134,0.980134,0.979746,0.979746,28.808452,677.533122,45.779265,169.483940,169.483940,169.282621,169.282621,11.451618,11.451618,11.438015,11.438015
0.540000,0.065969,0.000000,1.664771,0.338619,0.000000,6.095572,6.104970,0.000000,0.047620,0.000000,0.000000,0.052360,0.000000,10.000000,0.000000,0.020778,0.000000,0.882315,0.000000,9.115811,0.971846,0.971846,0.971510,0.971510,28.324732,660.540351,44.631105,165.220885,165.220885,165.049291,165.049291,11.163573,11.163573,11.151979,11.151979
0.550000,0.069355,0.000000,1.725726,0.347442,0.000000,6.186730,6.196478,0.000000,0.047827,0.000000,0.000000,0.052360,0.000000,10.000000,0.000000,0.019820,0.000000,0.866607,0.000000,8.732445,0.963620,0.963620,0.963309,0.963309,27.847928,643.931941,43.508915,161.060824,161.060824,160.905146,160.905146,10.882488,10.882488,10.871969,10.871969
0.560000,0.072829,0.000000,1.787594,0.356108,0.000000,6.274054,6.284152,0.000000,0.048026,0.000000,0.000000,0.052360,0.000000,10.000000,0.000000,0.018936,0.000000,0.850852,0.000000,8.355471,0.955448,0.955448,0.955154,0.955154,27.378016,627.702126,42.412306,156.998059,156.998059,156.853004,156.853004,10.607977,10.607977,10.598176,10.598176
0.570000,0.076391,0.000000,1.850334,0.364616,0.000000,6.357609,6.368056,0.000000,0.048215,0.000000,0.000000,0.052360,0.000000,10.000000,0.000000,0.018102,0.000000,0.835078,0.000000,7.984849,0.947329,0.947329,0.947047,0.947047,26.914971,611.845114,41.340886,153.029583,153.029583,152.892974,152.892974,10.339837,10.339837,10.330606,10.330606
0.580000,0.080037,0.000000,1.913910,0.372967,0.000000,6.437458,6.448253,0.000000,0.048396,0.000000,0.000000,0.052360,0.000000,10.000000,0.000000,0.017309,0.000000,0.819305,0.000000,7.620536,0.939262,0.939262,0.938991,0.938991,26.458763,596.355101,40.294264,149.153371,149.153371,149.024180,149.024180,10.077930,10.077930,10.069201,10.069201
0.590000,0.083766,0.000000,1.978285,0.381160,0.000000,6.513663,6.524806,0.000000,0.048569,0.000000,0.000000,0.052360,0.000000,10.000000,0.000000,0.016553,0.000000,0.803552,0.000000,7.262487,0.931248,0.931248,0.930986,0.930986,26.009365,581.226288,39.272046,145.367758,145.367758,145.245386,145.245386,9.822146,9.822146,9.813877,9.813877
0.600000,0.087578,0.000000,2.043421,0.389196,0.000000,6.586288,6.597777,0.000000,0.048735,0.000000,0.000000,0.052360,0.000000,10.000000,0.000000,0.015829,0.000000,0.787834,0.000000,6.910660,0.923286,0.923286,0.923034,0.923034,25.566745,566.452880,38.273843,141.671212,141.671212,141.555228,141.555228,9.572379,9.572379,9.564542,9.564542
0.610000,0.091470,0.000000,2.109284,0.397074,0.000000,6.655394,6.667229,0.000000,0.048893,0.000000,0.000000,0.052360,0.000000,10.000000,0.000000,0.015138,0.000000,0.772168,0.000000,6.565008,0.915379,0.915379,0.915136,0.915136,25.130872,552.029096,37.299263,138.062251,138.062251,137.952297,137.952297,9.328530,9.328530,9.321101,9.321101
0.620000,0.095441,0.000000,2.175838,0.404796,0.000000,6.721045,6.733224,0.000000,0.049044,0.000000,0.000000,0.052360,0.000000,10.000000,0.000000,0.014477,0.000000,0.756566,0.000000,6.225487,0.907526,0.907526,0.907291,0.907291,24.701713,537.949167,36.347917,134.539414,134.539414,134.435170,134.435170,9.090501,9.090501,9.083457,9.083457
0.630000,0.099489,0.000000,2.243049,0.412361,0.000000,6.783299,6.795822,0.000000,0.049189,0.000000,0.000000,0.052360,0.000000,10.000000,0.000000,0.013845,0.000000,0.741042,0.000000,5.892050,0.899728,0.899728,0.899502,0.899502,24.279234,524.207344,35.419415,131.101253,131.101253,131.002419,131.002419,8.858193,8.858193,8.851515,8.851515
0.640000,0.103612,0.000000,2.310882,0.419772,0.000000,6.842220,6.855084,0.000000,0.049328,0.000000,0.000000,0.052360,0.000000,10.000000,0.000000,0.013240,0.000000,0.725608,0.000000,5.564651,0.891987,0.891987,0.891769,0.891769,23.863400,510.797898,34.513371,127.746327,127.746327,127.652622,127.652622,8.631509,8.631509,8.625177,8.625177
0.650000,0.107810,0.000000,2.379304,0.427028,0.000000,6.897866,6.911072,0.000000,0.049460,0.000000,0.000000,0.052360,0.000000,10.000000,0.000000,0.012662,0.000000,0.710274,0.000000,5.243240,0.884303,0.884303,0.884093,0.884093,23.454174,497.715121,33.629400,124.473201,124.473201,124.384360,124.384360,8.410351,8.410351,8.404349,8.404349
0.660000,0.112080,0.000000,2.448283,0.434131,0.000000,6.950299,6.963844,0.000000,0.049587,0.000000,0.000000,0.052360,0.000000,10.000000,0.000000,0.012109,0.000000,0.695052,0.000000,4.927772,0.876677,0.876677,0.876474,0.876474,23.051519,484.953336,32.767117,121.280449,121.280449,121.196219,121.196219,8.194625,8.194625,8.188934,8.188934
0.670000,0.116422,0.000000,2.517786,0.441081,0.000000,6.999577,7.013460,0.000000,0.049708,0.000000,0.000000,0.052360,0.000000,10.000000,0.000000,0.011581,0.000000,0.679951,0.000000,4.618197,0.869109,0.869109,0.868913,0.868913,22.655397,472.506890,31.926141,118.166651,118.166651,118.086794,118.086794,7.984233,7.984233,7.978837,7.978837
0.680000,0.120832,0.000000,2.587781,0.447881,0.000000,7.045759,7.059980,0.000000,0.049824,0.000000,0.000000,0.052360,0.000000,10.000000,0.000000,0.011075,0.000000,0.664980,0.000000,4.314465,0.861600,0.861600,0.861411,0.861411,22.265769,460.370164,31.106092,115.130396,115.130396,115.054686,115.054686,7.779081,7.779081,7.773965,7.773965
0.690000,0.125311,0.000000,2.658239,0.454531,0.000000,7.088903,7.103460,0.000000,0.049934,0.000000,0.000000,0.052360,0.000000,10.000000,0.000000,0.010591,0.000000,0.650146,0.000000,4.016527,0.854152,0.854152,0.853970,0.853970,21.882594,448.537573,30.306593,112.170283,112.170283,112.098504,112.098504,7.579073,7.579073,7.574223,7.574223
0.700000,0.129856,0.000000,2.729128,0.461032,0.000000,7.129068,7.143960,0.000000,0.050040,0.000000,0.000000,0.052360,0.000000,10.000000,0.000000,0.010129,0.000000,0.635458,0.000000,3.724334,0.846764,0.846764,0.846589,0.846589,21.505832,437.003565,29.527268,109.284917,109.284917,109.216866,109.216866,7.384116,7.384116,7.379518,7.379518
0.710000,0.134467,0.000000,2.800419,0.467387,0.000000,7.166312,7.181537,0.000000,0.050141,0.000000,0.000000,0.052360,0.000000,10.000000,0.000000,0.009687,0.000000,0.620922,0.000000,3.437833,0.839438,0.839438,0.839269,0.839269,21.135439,425.762629,28.767745,106.472916,106.472916,106.408399,106.408399,7.194116,7.194116,7.189757,7.189757
0.720000,0.139141,0.000000,2.872082,0.473596,0.000000,7.200690,7.216248,0.000000,0.050238,0.000000,0.000000,0.052360,0.000000,10.000000,0.000000,0.009264,0.000000,0.606545,0.000000,3.156975,0.832175,0.832175,0.832011,0.832011,20.771375,414.809292,28.027655,103.732906,103.732906,103.671740,103.671740,7.008980,7.008980,7.004847,7.004847
0.730000,0.143877,0.000000,2.944089,0.479661,0.000000,7.232260,7.248149,0.000000,0.050331,0.000000,0.000000,0.052360,0.000000,10.000000,0.000000,0.008859,0.000000,0.592333,0.000000,2.881708,0.824975,0.824975,0.824817,0.824817,20.413594,404.138126,27.306630,101.063526,101.063526,101.005537,101.005537,6.828617,6.828617,6.824698,6.824698
0.740000,0.148673,0.000000,3.016411,0.485585,0.000000,7.261077,7.277296,0.000000,0.050420,0.000000,0.000000,0.052360,0.000000,10.000000,0.000000,0.008472,0.000000,0.578290,0.000000,2.611980,0.817838,0.817838,0.817686,0.817686,20.062053,393.743744,26.604307,98.463425,98.463425,98.408447,98.408447,6.652934,6.652934,6.649219,6.649219
0.750000,0.153529,0.000000,3.089022,0.491368,0.000000,7.287197,7.303744,0.000000,0.050504,0.000000,0.000000,0.052360,0.000000,10.000000,0.000000,0.008102,0.000000,0.564421,0.000000,2.347739,0.810767,0.810767,0.810620,0.810620,19.716706,383.620806,25.920325,95.931263,95.931263,95.879140,95.879140,6.481842,6.481842,6.478320,6.478320
0.760000,0.158443,0.000000,3.161894,0.497012,0.000000,7.310674,7.327549,0.000000,0.050585,0.000000,0.000000,0.052360,0.000000,10.000000,0.000000,0.007749,0.000000,0.550732,0.000000,2.088932,0.803760,0.803760,0.803619,0.803619,19.377508,373.764022,25.254326,93.465713,93.465713,93.416298,93.416298,6.315251,6.315251,6.311912,6.311912
0.770000,0.163413,0.000000,3.235001,0.502519,0.000000,7.331563,7.348765,0.000000,0.050663,0.000000,0.000000,0.052360,0.000000,10.000000,0.000000,0.007410,0.000000,0.537225,0.000000,1.835507,0.796820,0.796820,0.796684,0.796684,19.044412,364.168148,24.605956,91.065462,91.065462,91.018612,91.018612,6.153072,6.153072,6.149906,6.149906
0.780000,0.168438,0.000000,3.308316,0.507891,0.000000,7.349919,7.367446,0.000000,0.050737,0.000000,0.000000,0.052360,0.000000,10.000000,0.000000,0.007087,0.000000,0.523905,0.000000,1.587410,0.789947,0.789947,0.789815,0.789815,18.717370,354.827992,23.974864,88.729207,88.729207,88.684789,88.684789,5.995217,5.995217,5.992215,5.992215
0.790000,0.173517,0.000000,3.381816,0.513130,0.000000,7.365793,7.383644,0.000000,0.050808,0.000000,0.000000,0.052360,0.000000,10.000000,0.000000,0.006777,0.000000,0.510774,0.000000,1.344588,0.783142,0.783142,0.783014,0.783014,18.396337,345.738416,23.360704,86.455660,86.455660,86.413548,86.413548,5.841599,5.841599,5.838753,5.838753
0.800000,0.178648,0.000000,3.455473,0.518238,0.000000,7.379239,7.397414,0.000000,0.050876,0.000000,0.000000,0.052360,0.000000,10.000000,0.000000,0.006481,0.000000,0.497835,0.000000,1.106987,0.776405,0.776405,0.776282,0.776282,18.081261,336.894333,22.763131,84.243547,84.243547,84.203619,84.203619,5.692132,5.692132,5.689434,5.689434
0.810000,0.183831,0.000000,3.529266,0.523216,0.000000,7.390308,7.408806,0.000000,0.050940,0.000000,0.000000,0.052360,0.000000,10.000000,0.000000,0.006198,0.000000,0.485091,0.000000,0.874554,0.769737,0.769737,0.769618,0.769618,17.772096,328.290714,22.181805,82.091607,82.091607,82.053750,82.053750,5.546730,5.546730,5.544172,5.544172
0.820000,0.189063,0.000000,3.603169,0.528067,0.000000,7.399054,7.417874,0.000000,0.051002,0.000000,0.000000,0.052360,0.000000,10.000000,0.000000,0.005928,0.000000,0.472544,0.000000,0.647235,0.763138,0.763138,0.763024,0.763024,17.468791,319.922585,21.616391,79.998593,79.998593,79.962700,79.962700,5.405310,5.405310,5.402885,5.402885
0.830000,0.194343,0.000000,3.677159,0.532793,0.000000,7.405526,7.424668,0.000000,0.051062,0.000000,0.000000,0.052360,0.000000,10.000000,0.000000,0.005669,0.000000,0.460195,0.000000,0.424975,0.756611,0.756611,0.756501,0.756501,17.171297,311.785029,21.066556,77.963273,77.963273,77.929241,77.929241,5.267789,5.267789,5.265489,5.265489
0.840000,0.199671,0.000000,3.751215,0.537395,0.000000,7.409776,7.429238,0.000000,0.051118,0.000000,0.000000,0.052360,0.000000,10.000000,0.000000,0.005421,0.000000,0.448047,0.000000,0.207720,0.750154,0.750154,0.750048,0.750048,16.879562,303.873188,20.531972,75.984431,75.984431,75.952163,75.952163,5.134083,5.134083,5.131903,5.131903
0.850000,0.205045,0.000000,3.825312,0.541875,0.000000,7.411853,7.431635,0.000000,0.051173,0.000000,0.000000,0.052360,0.000000,10.000000,0.000000,0.005185,0.000000,0.436100,0.000000,-0.004585,0.743770,0.743770,0.743668,0.743668,16.593537,296.182266,20.012315,74.060865,74.060865,74.030268,74.030268,5.004112,5.004112,5.002045,5.002045
0.860000,0.210464,0.000000,3.899431,0.546236,0.000000,7.411807,7.431908,0.000000,0.051224,0.000000,0.000000,0.052360,0.000000,10.000000,0.000000,0.004958,0.000000,0.424355,0.000000,-0.211994,0.737459,0.737459,0.737360,0.737360,16.313169,288.707524,19.507265,72.191387,72.191387,72.162375,72.162375,4.877796,4.877796,4.875836,4.875836
0.870000,0.215926,0.000000,3.973549,0.550480,0.000000,7.409687,7.430107,0.000000,0.051274,0.000000,0.000000,0.052360,0.000000,10.000000,0.000000,0.004742,0.000000,0.412814,0.000000,-0.414563,0.731220,0.731220,0.731125,0.731125,16.038406,281.444288,19.016506,70.374828,70.374828,70.347316,70.347316,4.755056,4.755056,4.753197,4.753197
0.880000,0.221431,0.000000,4.047646,0.554608,0.000000,7.405542,7.426280,0.000000,0.051321,0.000000,0.000000,0.052360,0.000000,10.000000,0.000000,0.004535,0.000000,0.401476,0.000000,-0.612345,0.725056,0.725056,0.724964,0.724964,15.769198,274.387944,18.539726,68.610030,68.610030,68.583942,68.583942,4.635813,4.635813,4.634050,4.634050
0.890000,0.226977,0.000000,4.121701,0.558623,0.000000,7.399418,7.420475,0.000000,0.051367,0.000000,0.000000,0.052360,0.000000,10.000000,0.000000,0.004337,0.000000,0.390342,0.000000,-0.805396,0.718967,0.718967,0.718878,0.718878,15.505491,267.533942,18.076618,66.895855,66.895855,66.871116,66.871116,4.519990,4.519990,4.518319,4.518319
0.900000,0.232564,0.000000,4.195696,0.562526,0.000000,7.391364,7.412739,0.000000,0.051410,0.000000,0.000000,0.052360,0.000000,10.000000,0.000000,0.004147,0.000000,0.379413,0.000000,-0.993772,0.712953,0.712953,0.712868,0.712868,15.247232,260.877796,17.626878,65.231180,65.231180,65.207718,65.207718,4.407512,4.407512,4.405927,4.405927
0.910000,0.238189,0.000000,4.269609,0.566320,0.000000,7.381427,7.403119,0.000000,0.051452,0.000000,0.000000,0.052360,0.000000,10.000000,0.000000,0.003966,0.000000,0.368688,0.000000,-1.177526,0.707015,0.707015,0.706933,0.706933,14.994368,254.415085,17.190208,63.614896,63.614896,63.592646,63.592646,4.298304,4.298304,4.296800,4.296800
0.920000,0.243852,0.000000,4.343423,0.570007,0.000000,7.369651,7.391662,0.000000,0.051491,0.000000,0.000000,0.052360,0.000000,10.000000,0.000000,0.003793,0.000000,0.358166,0.000000,-1.356715,0.701154,0.701154,0.701075,0.701075,14.746846,248.141452,16.766314,62.045914,62.045914,62.024812,62.024812,4.192291,4.192291,4.190866,4.190866
0.930000,0.249552,0.000000,4.417120,0.573589,0.000000,7.356084,7.378413,0.000000,0.051529,0.000000,0.000000,0.052360,0.000000,10.000000,0.000000,0.003627,0.000000,0.347849,0.000000,-1.531393,0.695371,0.695371,0.695294,0.695294,14.504611,242.052607,16.354906,60.523159,60.523159,60.503144,60.503144,4.089403,4.089403,4.088050,4.088050
0.940000,0.255288,0.000000,4.490681,0.577067,0.000000,7.340770,7.363417,0.000000,0.051565,0.000000,0.000000,0.052360,0.000000,10.000000,0.000000,0.003469,0.000000,0.337734,0.000000,-1.701615,0.689665,0.689665,0.689591,0.689591,14.267611,236.144324,15.955698,59.045573,59.045573,59.026589,59.026589,3.989566,3.989566,3.988283,3.988283
0.950000,0.261059,0.000000,4.564089,0.580445,0.000000,7.323754,7.346720,0.000000,0.051600,0.000000,0.000000,0.052360,0.000000,10.000000,0.000000,0.003318,0.000000,0.327822,0.000000,-1.867436,0.684038,0.684038,0.683967,0.683967,14.035791,230.412446,15.568409,57.612115,57.612115,57.594108,57.594108,3.892710,3.892710,3.891494,3.891494
0.960000,0.266863,0.000000,4.637326,0.583723,0.000000,7.305080,7.328364,0.000000,0.051633,0.000000,0.000000,0.052360,0.000000,10.000000,0.000000,0.003173,0.000000,0.318112,0.000000,-2.028912,0.678491,0.678491,0.678422,0.678422,13.809095,224.852882,15.192762,56.221761,56.221761,56.204680,56.204680,3.798768,3.798768,3.797614,3.797614
0.970000,0.272700,0.000000,4.710377,0.586904,0.000000,7.284791,7.308395,0.000000,0.051665,0.000000,0.000000,0.052360,0.000000,10.000000,0.000000,0.003034,0.000000,0.308603,0.000000,-2.186097,0.673023,0.673023,0.672957,0.672957,13.587471,219.461606,14.828487,54.873503,54.873503,54.857300,54.857300,3.707669,3.707669,3.706574,3.706574
0.980000,0.278569,0.000000,4.783225,0.589990,0.000000,7.262930,7.286854,0.000000,0.051695,0.000000,0.000000,0.052360,0.000000,10.000000,0.000000,0.002902,0.000000,0.299293,0.000000,-2.339047,0.667636,0.667636,0.667572,0.667572,13.370862,214.234663,14.475315,53.566352,53.566352,53.550980,53.550980,3.619348,3.619348,3.618309,3.618309
0.990000,0.284469,0.000000,4.855854,0.592983,0.000000,7.239539,7.263784,0.000000,0.051724,0.000000,0.000000,0.052360,0.000000,10.000000,0.000000,0.002775,0.000000,0.290182,0.000000,-2.487815,0.662330,0.662330,0.662269,0.662269,13.159215,209.168162,14.132984,52.299332,52.299332,52.284749,52.284749,3.533739,3.533739,3.532753,3.532753
1.000000,0.290399,0.000000,4.928249,0.595885,0.000000,7.214661,7.239227,0.000000,0.051752,0.000000,0.000000,0.052360,0.000000,10.000000,0.000000,0.002654,0.000000,0.281268,0.000000,-2.632458,0.657106,0.657106,0.657047,0.657047,12.952473,204.258283,13.801235,51.071489,51.071489,51.057652,51.057652,3.450776,3.450776,3.449841,3.449841
1.010000,0.296358,0.000000,5.000396,0.598697,0.000000,7.188337,7.213225,0.000000,0.051779,0.000000,0.000000,0.052360,0.000000,10.000000,0.000000,0.002538,0.000000,0.272551,0.000000,-2.773028,0.651964,0.651964,0.651907,0.651907,12.750583,199.501270,13.479816,49.881882,49.881882,49.868753,49.868753,3.370397,3.370397,3.369510,3.369510
1.020000,0.302345,0.000000,5.072279,0.601423,0.000000,7.160606,7.185819,0.000000,0.051804,0.000000,0.000000,0.052360,0.000000,10.000000,0.000000,0.002427,0.000000,0.264028,0.000000,-2.909582,0.646904,0.646904,0.646849,0.646849,12.553488,194.893438,13.168476,48.729589,48.729589,48.717130,48.717130,3.292540,3.292540,3.291698,3.291698
1.030000,0.308359,0.000000,5.143886,0.604063,0.000000,7.131510,7.157048,0.000000,0.051828,0.000000,0.000000,0.052360,0.000000,10.000000,0.000000,0.002321,0.000000,0.255698,0.000000,-3.042173,0.641928,0.641928,0.641875,0.641875,12.361133,190.431169,12.866971,47.613704,47.613704,47.601881,47.601881,3.217142,3.217142,3.216343,3.216343
1.040000,0.314400,0.000000,5.215201,0.606620,0.000000,7.101089,7.126952,0.000000,0.051852,0.000000,0.000000,0.052360,0.000000,10.000000,0.000000,0.002220,0.000000,0.247560,0.000000,-3.170856,0.637036,0.637036,0.636985,0.636985,12.173463,186.110912,12.575062,46.533338,46.533338,46.522118,46.522118,3.144144,3.144144,3.143386,3.143386
1.050000,0.320466,0.000000,5.286211,0.609096,0.000000,7.069380,7.095571,0.000000,0.051874,0.000000,0.000000,0.052360,0.000000,10.000000,0.000000,0.002123,0.000000,0.239612,0.000000,-3.295684,0.632228,0.632228,0.632178,0.632178,11.990423,181.929183,12.292512,45.487621,45.487621,45.476971,45.476971,3.073488,3.073488,3.072768,3.072768
1.060000,0.326557,0.000000,5.356905,0.611492,0.000000,7.036423,7.062944,0.000000,0.051895,0.000000,0.000000,0.052360,0.000000,10.000000,0.000000,0.002030,0.000000,0.231852,0.000000,-3.416712,0.627504,0.627504,0.627457,0.627457,11.811957,177.882568,12.019092,44.475696,44.475696,44.465588,44.465588,3.005115,3.005115,3.004432,3.004432
1.070000,0.332672,0.000000,5.427270,0.613810,0.000000,7.002256,7.029108,0.000000,0.051915,0.000000,0.000000,0.052360,0.000000,10.000000,0.000000,0.001942,0.000000,0.224278,0.000000,-3.533993,0.622866,0.622866,0.622820,0.622820,11.638009,173.967718,11.754576,43.496727,43.496727,43.487132,43.487132,2.938968,2.938968,2.938320,2.938320
1.080000,0.338810,0.000000,5.497292,0.616053,0.000000,6.966916,6.994101,0.000000,0.051935,0.000000,0.000000,0.052360,0.000000,10.000000,0.000000,0.001857,0.000000,0.216889,0.000000,-3.647581,0.618313,0.618313,0.618269,0.618269,11.468525,170.181351,11.498740,42.549892,42.549892,42.540783,42.540783,2.874993,2.874993,2.874377,2.874377
1.090000,0.344970,0.000000,5.566961,0.618222,0.000000,6.930440,6.957960,0.000000,0.051953,0.000000,0.000000,0.052360,0.000000,10.000000,0.000000,0.001776,0.000000,0.209683,0.000000,-3.757529,0.613847,0.613847,0.613804,0.613804,11.303449,166.520253,11.251368,41.634388,41.634388,41.625739,41.625739,2.813134,2.813134,2.812550,2.812550
1.100000,0.351153,0.000000,5.636266,0.620319,0.000000,6.892865,6.920721,0.000000,0.051971,0.000000,0.000000,0.052360,0.000000,10.000000,0.000000,0.001698,0.000000,0.202658,0.000000,-3.863890,0.609466,0.609466,0.609425,0.609425,11.142725,162.981276,11.012248,40.749425,40.749425,40.741213,40.741213,2.753340,2.753340,2.752785,2.752785
1.110000,0.357356,0.000000,5.705194,0.622345,0.000000,6.854226,6.882422,0.000000,0.051988,0.000000,0.000000,0.052360,0.000000,10.000000,0.000000,0.001624,0.000000,0.195812,0.000000,-3.966717,0.605173,0.605173,0.605133,0.605133,10.986298,159.561338,10.781171,39.894234,39.894234,39.886435,39.886435,2.695556,2.695556,2.695029,2.695029
1.120000,0.363579,0.000000,5.773737,0.624304,0.000000,6.814559,6.843097,0.000000,0.052004,0.000000,0.000000,0.052360,0.000000,10.000000,0.000000,0.001553,0.000000,0.189142,0.000000,-4.066064,0.600966,0.600966,0.600928,0.600928,10.834113,156.257423,10.557934,39.068059,39.068059,39.060653,39.060653,2.639734,2.639734,2.639233,2.639233
1.130000,0.369822,0.000000,5.841882,0.626195,0.000000,6.773898,6.802780,0.000000,0.052020,0.000000,0.000000,0.052360,0.000000,10.000000,0.000000,0.001485,0.000000,0.182648,0.000000,-4.161981,0.596846,0.596846,0.596810,0.596810,10.686115,153.066580,10.342336,38.270162,38.270162,38.263128,38.263128,2.585822,2.585822,2.585346,2.585346
1.140000,0.376084,0.000000,5.909621,0.628021,0.000000,6.732279,6.761508,0.000000,0.052035,0.000000,0.000000,0.052360,0.000000,10.000000,0.000000,0.001420,0.000000,0.176326,0.000000,-4.254522,0.592815,0.592815,0.592779,0.592779,10.542249,149.985921,10.134184,37.499821,37.499821,37.493140,37.493140,2.533772,2.533772,2.533320,2.533320
1.150000,0.382365,0.000000,5.976944,0.629785,0.000000,6.689733,6.719313,0.000000,0.052049,0.000000,0.000000,0.052360,0.000000,10.000000,0.000000,0.001358,0.000000,0.170175,0.000000,-4.343738,0.588871,0.588871,0.588837,0.588837,10.402459,147.012627,9.933286,36.756330,36.756330,36.749983,36.749983,2.483536,2.483536,2.483107,2.483107
1.160000,0.388662,0.000000,6.043841,0.631486,0.000000,6.646296,6.676228,0.000000,0.052062,0.000000,0.000000,0.052360,0.000000,10.000000,0.000000,0.001299,0.000000,0.164193,0.000000,-4.429682,0.585015,0.585015,0.584982,0.584982,10.266691,144.143938,9.739455,36.039000,36.039000,36.032969,36.032969,2.435068,2.435068,2.434660,2.434660
1.170000,0.394977,0.000000,6.110304,0.633128,0.000000,6.601999,6.632288,0.000000,0.052075,0.000000,0.000000,0.052360,0.000000,10.000000,0.000000,0.001242,0.000000,0.158377,0.000000,-4.512404,0.581247,0.581247,0.581215,0.581215,10.134891,141.377159,9.552511,35.347155,35.347155,35.341425,35.341425,2.388321,2.388321,2.387934,2.387934
1.180000,0.401309,0.000000,6.176324,0.634712,0.000000,6.556875,6.587524,0.000000,0.052088,0.000000,0.000000,0.052360,0.000000,10.000000,0.000000,0.001188,0.000000,0.152725,0.000000,-4.591955,0.577568,0.577568,0.577537,0.577537,10.007004,138.709657,9.372274,34.680137,34.680137,34.674692,34.674692,2.343252,2.343252,2.342885,2.342885
1.190000,0.407656,0.000000,6.241893,0.636239,0.000000,6.510956,6.541968,0.000000,0.052100,0.000000,0.000000,0.052360,0.000000,10.000000,0.000000,0.001136,0.000000,0.147236,0.000000,-4.668387,0.573977,0.573977,0.573948,0.573948,9.882974,136.138864,9.198572,34.037303,34.037303,34.032128,34.032128,2.299818,2.299818,2.299468,2.299468
1.200000,0.414018,0.000000,6.307003,0.637712,0.000000,6.464272,6.495651,0.000000,0.052111,0.000000,0.000000,0.052360,0.000000,10.000000,0.000000,0.001087,0.000000,0.141906,0.000000,-4.741750,0.570474,0.570474,0.570446,0.570446,9.762749,133.662268,9.031234,33.418026,33.418026,33.413108,33.413108,2.257975,2.257975,2.257642,2.257642
1.210000,0.420395,0.000000,6.371645,0.639131,0.000000,6.416854,6.448605,0.000000,0.052122,0.000000,0.000000,0.052360,0.000000,10.000000,0.000000,0.001039,0.000000,0.136734,0.000000,-4.812094,0.567061,0.567061,0.567034,0.567034,9.646275,131.277422,8.870096,32.821693,32.821693,32.817018,32.817018,2.217682,2.217682,2.217366,2.217366
1.220000,0.426786,0.000000,6.435814,0.640498,0.000000,6.368733,6.400859,0.000000,0.052132,0.000000,0.000000,0.052360,0.000000,10.000000,0.000000,0.000994,0.000000,0.131718,0.000000,-4.879468,0.563736,0.563736,0.563710,0.563710,9.533496,128.981937,8.714996,32.247707,32.247707,32.243262,32.243262,2.178899,2.178899,2.178599,2.178599
1.230000,0.433191,0.000000,6.499501,0.641815,0.000000,6.319939,6.352445,0.000000,0.052142,0.000000,0.000000,0.052360,0.000000,10.000000,0.000000,0.000950,0.000000,0.126855,0.000000,-4.943924,0.560499,0.560499,0.560474,0.560474,9.424360,126.773483,8.565776,31.695484,31.695484,31.691257,31.691257,2.141587,2.141587,2.141301,2.141301
1.240000,0.439610,0.000000,6.562701,0.643084,0.000000,6.270499,6.303390,0.000000,0.052152,0.000000,0.000000,0.052360,0.000000,10.000000,0.000000,0.000909,0.000000,0.122143,0.000000,-5.005509,0.557351,0.557351,0.557327,0.557327,9.318814,124.649789,8.422283,31.164457,31.164457,31.160437,31.160437,2.105707,2.105707,2.105435,2.105435
1.250000,0.446040,0.000000,6.625406,0.644305,0.000000,6.220444,6.253723,0.000000,0.052161,0.000000,0.000000,0.052360,0.000000,10.000000,0.000000,0.000869,0.000000,0.117580,0.000000,-5.064273,0.554292,0.554292,0.554269,0.554269,9.216803,122.608640,8.284368,30.654072,30.654072,30.650249,30.650249,2.071221,2.071221,2.070963,2.070963
1.260000,0.452484,0.000000,6.687610,0.645481,0.000000,6.169802,6.203475,0.000000,0.052170,0.000000,0.000000,0.052360,0.000000,10.000000,0.000000,0.000831,0.000000,0.113163,0.000000,-5.120264,0.551321,0.551321,0.551299,0.551299,9.118276,120.647881,8.151884,30.163788,30.163788,30.160152,30.160152,2.038094,2.038094,2.037848,2.037848
1.270000,0.458938,0.000000,6.749308,0.646613,0.000000,6.118599,6.152671,0.000000,0.052178,0.000000,0.000000,0.052360,0.000000,10.000000,0.000000,0.000795,0.000000,0.108891,0.000000,-5.173531,0.548438,0.548438,0.548417,0.548417,9.023179,118.765409,8.024690,29.693082,29.693082,29.689623,29.689623,2.006289,2.006289,2.006056,2.006056
1.280000,0.465404,0.000000,6.810494,0.647702,0.000000,6.066864,6.101340,0.000000,0.052186,0.000000,0.000000,0.052360,0.000000,10.000000,0.000000,0.000760,0.000000,0.104761,0.000000,-5.224122,0.545643,0.545643,0.545623,0.545623,8.931460,116.959179,7.902647,29.241440,29.241440,29.238149,29.238149,1.975773,1.975773,1.975551,1.975551
1.290000,0.471881,0.000000,6.871163,0.648749,0.000000,6.014622,6.049509,0.000000,0.052193,0.000000,0.000000,0.052360,0.000000,10.000000,0.000000,0.000727,0.000000,0.100770,0.000000,-5.272083,0.542936,0.542936,0.542916,0.542916,8.843067,115.227197,7.785621,28.808365,28.808365,28.805233,28.805233,1.946511,1.946511,1.946300,1.946300
1.300000,0.478369,0.000000,6.931309,0.649757,0.000000,5.961902,5.997204,0.000000,0.052201,0.000000,0.000000,0.052360,0.000000,10.000000,0.000000,0.000695,0.000000,0.096917,0.000000,-5.317463,0.540316,0.540316,0.540297,0.540297,8.757948,113.567525,7.673481,28.393372,28.393372,28.390391,28.390391,1.918471,1.918471,1.918270,1.918270
1.310000,0.484867,0.000000,6.990928,0.650726,0.000000,5.908727,5.944451,0.000000,0.052208,0.000000,0.000000,0.052360,0.000000,10.000000,0.000000,0.000665,0.000000,0.093200,0.000000,-5.360307,0.537784,0.537784,0.537766,0.537766,8.676051,111.978276,7.566100,27.995988,27.995988,27.993150,27.993150,1.891621,1.891621,1.891429,1.891429
1.320000,0.491374,0.000000,7.050015,0.651658,0.000000,5.855124,5.891276,0.000000,0.052214,0.000000,0.000000,0.052360,0.000000,10.000000,0.000000,0.000636,0.000000,0.089616,0.000000,-5.400663,0.535338,0.535338,0.535321,0.535321,8.597325,110.457615,7.463352,27.615754,27.615754,27.613053,27.613053,1.865929,1.865929,1.865747,1.865747
1.330000,0.497890,0.000000,7.108566,0.652554,0.000000,5.801117,5.837704,0.000000,0.052221,0.000000,0.000000,0.052360,0.000000,10.000000,0.000000,0.000608,0.000000,0.086162,0.000000,-5.438577,0.532979,0.532979,0.532962,0.532962,8.521719,109.003756,7.365119,27.252225,27.252225,27.249653,27.249653,1.841367,1.841367,1.841193,1.841193
1.340000,0.504416,0.000000,7.166578,0.653416,0.000000,5.746731,5.783760,0.000000,0.052227,0.000000,0.000000,0.052360,0.000000,10.000000,0.000000,0.000582,0.000000,0.082837,0.000000,-5.474094,0.530705,0.530705,0.530689,0.530689,8.449183,107.614962,7.271281,26.904965,26.904965,26.902516,26.902516,1.817903,1.817903,1.817738,1.817738
1.350000,0.510950,0.000000,7.224045,0.654244,0.000000,5.691991,5.729467,0.000000,0.052232,0.000000,0.000000,0.052360,0.000000,10.000000,0.000000,0.000556,0.000000,0.079639,0.000000,-5.507259,0.528517,0.528517,0.528502,0.528502,8.379664,106.289547,7.181726,26.573553,26.573553,26.571220,26.571220,1.795510,1.795510,1.795353,1.795353
1.360000,0.517493,0.000000,7.280965,0.655041,0.000000,5.636918,5.674850,0.000000,0.052238,0.000000,0.000000,0.052360,0.000000,10.000000,0.000000,0.000532,0.000000,0.076565,0.000000,-5.538118,0.526414,0.526414,0.526399,0.526399,8.313115,105.025869,7.096343,26.257578,26.257578,26.255356,26.255356,1.774161,1.774161,1.774011,1.774011
1.370000,0.524043,0.000000,7.337334,0.655806,0.000000,5.581537,5.619932,0.000000,0.052243,0.000000,0.000000,0.052360,0.000000,10.000000,0.000000,0.000509,0.000000,0.073613,0.000000,-5.566715,0.524395,0.524395,0.524381,0.524381,8.249484,103.822335,7.015023,25.956642,25.956642,25.954525,25.954525,1.753827,1.753827,1.753684,1.753684
1.380000,0.530601,0.000000,7.393149,0.656542,0.000000,5.525870,5.564736,0.000000,0.052248,0.000000,0.000000,0.052360,0.000000,10.000000,0.000000,0.000486,0.000000,0.070780,0.000000,-5.593094,0.522460,0.522460,0.522446,0.522446,8.188722,102.677396,6.937662,25.670357,25.670357,25.668341,25.668341,1.734484,1.734484,1.734347,1.734347
1.390000,0.537166,0.000000,7.448408,0.657250,0.000000,5.469939,5.509284,0.000000,0.052253,0.000000,0.000000,0.052360,0.000000,10.000000,0.000000,0.000465,0.000000,0.068066,0.000000,-5.617298,0.520608,0.520608,0.520595,0.520595,8.130781,101.589547,6.864159,25.398348,25.398348,25.396426,25.396426,1.716105,1.716105,1.715975,1.715975
1.400000,0.543739,0.000000,7.503107,0.657931,0.000000,5.413766,5.453598,0.000000,0.052258,0.000000,0.000000,0.052360,0.000000,10.000000,0.000000,0.000445,0.000000,0.065467,0.000000,-5.639372,0.518839,0.518839,0.518826,0.518826,8.075611,100.557326,6.794414,25.140247,25.140247,25.138416,25.138416,1.698665,1.698665,1.698542,1.698542
1.410000,0.550318,0.000000,7.557245,0.658586,0.000000,5.357372,5.397700,0.000000,0.052262,0.000000,0.000000,0.052360,0.000000,10.000000,0.000000,0.000425,0.000000,0.062981,0.000000,-5.659359,0.517151,0.517151,0.517139,0.517139,8.023164,99.579315,6.728332,24.895702,24.895702,24.893956,24.893956,1.682142,1.682142,1.682024,1.682024
1.420000,0.556904,0.000000,7.610819,0.659215,0.000000,5.300778,5.341612,0.000000,0.052267,0.000000,0.000000,0.052360,0.000000,10.000000,0.000000,0.000407,0.000000,0.060607,0.000000,-5.677299,0.515544,0.515544,0.515532,0.515532,7.973392,98.654134,6.665820,24.664366,24.664366,24.662701,24.662701,1.666511,1.666511,1.666399,1.666399
1.430000,0.563496,0.000000,7.663827,0.659821,0.000000,5.244005,5.285353,0.000000,0.052271,0.000000,0.000000,0.052360,0.000000,10.000000,0.000000,0.000389,0.000000,0.058342,0.000000,-5.693237,0.514017,0.514017,0.514006,0.514006,7.926247,97.780446,6.606787,24.445905,24.445905,24.444318,24.444318,1.651750,1.651750,1.651643,1.651643
1.440000,0.570094,0.000000,7.716267,0.660405,0.000000,5.187073,5.228945,0.000000,0.052275,0.000000,0.000000,0.052360,0.000000,10.000000,0.000000,0.000372,0.000000,0.056184,0.000000,-5.707213,0.512570,0.512570,0.512560,0.512560,7.881682,96.956952,6.551145,24.239995,24.239995,24.238481,24.238481,1.637837,1.637837,1.637735,1.637735
1.450000,0.576699,0.000000,7.768137,0.660967,0.000000,5.130001,5.172406,0.000000,0.052278,0.000000,0.000000,0.052360,0.000000,10.000000,0.000000,0.000356,0.000000,0.054130,0.000000,-5.719269,0.511201,0.511201,0.511191,0.511191,7.839649,96.182389,6.498810,24.046319,24.046319,24.044875,24.044875,1.624751,1.624751,1.624654,1.624654
1.460000,0.583308,0.000000,7.819437,0.661508,0.000000,5.072808,5.115758,0.000000,0.052282,0.000000,0.000000,0.052360,0.000000,10.000000,0.000000,0.000340,0.000000,0.052180,0.000000,-5.729446,0.509910,0.509910,0.509900,0.509900,7.800103,95.455534,6.449698,23.864572,23.864572,23.863195,23.863195,1.612471,1.612471,1.612378,1.612378
1.470000,0.589923,0.000000,7.870165,0.662030,0.000000,5.015514,5.059018,0.000000,0.052285,0.000000,0.000000,0.052360,0.000000,10.000000,0.000000,0.000325,0.000000,0.050331,0.000000,-5.737784,0.508696,0.508696,0.508686,0.508686,7.762996,94.775197,6.403730,23.694456,23.694456,23.693142,23.693142,1.600977,1.600977,1.600888,1.600888
1.480000,0.596544,0.000000,7.920321,0.662533,0.000000,4.958136,5.002206,0.000000,0.052289,0.000000,0.000000,0.052360,0.000000,10.000000,0.000000,0.000311,0.000000,0.048580,0.000000,-5.744323,0.507557,0.507557,0.507548,0.507548,7.728284,94.140224,6.360826,23.535683,23.535683,23.534429,23.534429,1.590249,1.590249,1.590164,1.590164
1.490000,0.603169,0.000000,7.969902,0.663019,0.000000,4.900693,4.945339,0.000000,0.052292,0.000000,0.000000,0.052360,0.000000,10.000000,0.000000,0.000298,0.000000,0.046926,0.000000,-5.749103,0.506493,0.506493,0.506484,0.506484,7.695920,93.549496,6.320912,23.387972,23.387972,23.386776,23.386776,1.580268,1.580268,1.580188,1.580188
1.500000,0.609799,0.000000,8.018909,0.663488,0.000000,4.843202,4.888437,0.000000,0.052295,0.000000,0.000000,0.052360,0.000000,10.000000,0.000000,0.000285,0.000000,0.045367,0.000000,-5.752163,0.505503,0.505503,0.505494,0.505494,7.665860,93.001925,6.283914,23.251052,23.251052,23.249910,23.249910,1.571017,1.571017,1.570940,1.570940
1.510000,0.616434,0.000000,8.067341,0.663942,0.000000,4.785680,4.831517,0.000000,0.052298,0.000000,0.000000,0.052360,0.000000,10.000000,0.000000,0.000272,0.000000,0.043900,0.000000,-5.753542,0.504585,0.504585,0.504577,0.504577,7.638058,92.496454,6.249760,23.124659,23.124659,23.123568,23.123568,1.562477,1.562477,1.562403,1.562403
1.520000,0.623073,0.000000,8.115198,0.664381,0.000000,4.728145,4.774595,0.000000,0.052300,0.000000,0.000000,0.052360,0.000000,10.000000,0.000000,0.000260,0.000000,0.042524,0.000000,-5.753279,0.503739,0.503739,0.503731,0.503731,7.612472,92.032058,6.218382,23.008535,23.008535,23.007494,23.007494,1.554631,1.554631,1.554560,1.554560
1.530000,0.629717,0.000000,8.162479,0.664806,0.000000,4.670612,4.717688,0.000000,0.052303,0.000000,0.000000,0.052360,0.000000,10.000000,0.000000,0.000249,0.000000,0.041238,0.000000,-5.751410,0.502963,0.502963,0.502956,0.502956,7.589055,91.607743,6.189712,22.902433,22.902433,22.901439,22.901439,1.547462,1.547462,1.547395,1.547395
1.540000,0.636365,0.000000,8.209185,0.665219,0.000000,4.613098,4.660814,0.000000,0.052305,0.000000,0.000000,0.052360,0.000000,10.000000,0.000000,0.000238,0.000000,0.040038,0.000000,-5.747974,0.502257,0.502257,0.502250,0.502250,7.567766,91.222539,6.163685,22.806109,22.806109,22.805160,22.805160,1.540953,1.540953,1.540889,1.540889
1.550000,0.643017,0.000000,8.255316,0.665619,0.000000,4.555618,4.603988,0.000000,0.052308,0.000000,0.000000,0.052360,0.000000,10.000000,0.000000,0.000228,0.000000,0.038923,0.000000,-5.743009,0.501619,0.501619,0.501613,0.501613,7.548561,90.875510,6.140237,22.719331,22.719331,22.718424,22.718424,1.535090,1.535090,1.535029,1.535029
1.560000,0.649674,0.000000,8.300872,0.666008,0.000000,4.498188,4.547226,0.000000,0.052310,0.000000,0.000000,0.052360,0.000000,10.000000,0.000000,0.000218,0.000000,0.037891,0.000000,-5.736549,0.501049,0.501049,0.501042,0.501042,7.531397,90.565741,6.119307,22.641868,22.641868,22.641002,22.641002,1.529856,1.529856,1.529797,1.529797
1.570000,0.656334,0.000000,8.345854,0.666387,0.000000,4.440822,4.490543,0.000000,0.052312,0.000000,0.000000,0.052360,0.000000,10.000000,0.000000,0.000208,0.000000,0.036940,0.000000,-5.728633,0.500544,0.500544,0.500538,0.500538,7.516233,90.292346,6.100834,22.573500,22.573500,22.572673,22.572673,1.525236,1.525236,1.525181,1.525181
1.580000,0.662998,0.000000,8.390262,0.666756,0.000000,4.383536,4.433954,0.000000,0.052314,0.000000,0.000000,0.052360,0.000000,10.000000,0.000000,0.000199,0.000000,0.036069,0.000000,-5.719294,0.500104,0.500104,0.500098,0.500098,7.503025,90.054462,6.084761,22.514011,22.514011,22.513220,22.513220,1.521217,1.521217,1.521164,1.521164
1.590000,0.669665,0.000000,8.434098,0.667117,0.000000,4.326343,4.377475,0.000000,0.052316,0.000000,0.000000,0.052360,0.000000,10.000000,0.000000,0.000190,0.000000,0.035275,0.000000,-5.708570,0.499727,0.499727,0.499722,0.499722,7.491734,89.851253,6.071031,22.463191,22.463191,22.462436,22.462436,1.517783,1.517783,1.517732,1.517732
1.600000,0.676336,0.000000,8.477361,0.667470,0.000000,4.269257,4.321120,0.000000,0.052318,0.000000,0.000000,0.052360,0.000000,10.000000,0.000000,0.000182,0.000000,0.034557,0.000000,-5.696495,0.499413,0.499413,0.499408,0.499408,7.482317,89.681903,6.059588,22.420837,22.420837,22.420115,22.420115,1.514921,1.514921,1.514873,1.514873
1.610000,0.683011,0.000000,8.520054,0.667815,0.000000,4.212292,4.264902,0.000000,0.052320,0.000000,0.000000,0.052360,0.000000,10.000000,0.000000,0.000174,0.000000,0.033913,0.000000,-5.683103,0.499160,0.499160,0.499155,0.499155,7.474735,89.545618,6.050380,22.386750,22.386750,22.386059,22.386059,1.512618,1.512618,1.512572,1.512572
1.620000,0.689689,0.000000,8.562177,0.668155,0.000000,4.155461,4.208835,0.000000,0.052322,0.000000,0.000000,0.052360,0.000000,10.000000,0.000000,0.000167,0.000000,0.033341,0.000000,-5.668429,0.498966,0.498966,0.498961,0.498961,7.468947,89.441628,6.043353,22.360737,22.360737,22.360077,22.360077,1.510861,1.510861,1.510816,1.510816
1.630000,0.696371,0.000000,8.603731,0.668488,0.000000,4.098777,4.152933,0.000000,0.052323,0.000000,0.000000,0.052360,0.000000,10.000000,0.000000,0.000159,0.000000,0.032839,0.000000,-5.652505,0.498831,0.498831,0.498827,0.498827,7.464913,89.369181,6.038458,22.342610,22.342610,22.341980,22.341980,1.509636,1.509636,1.509593,1.509593
1.640000,0.703056,0.000000,8.644719,0.668816,0.000000,4.042252,4.097208,0.000000,0.052325,0.000000,0.000000,0.052360,0.000000,10.000000,0.000000,0.000152,0.000000,0.032406,0.000000,-5.635367,0.498754,0.498754,0.498749,0.498749,7.462595,89.327545,6.035645,22.332188,22.332188,22.331585,22.331585,1.508932,1.508932,1.508891,1.508891
1.650000,0.709744,0.000000,8.685142,0.669140,0.000000,3.985898,4.041675,0.000000,0.052327,0.000000,0.000000,0.052360,0.000000,10.000000,0.000000,0.000146,0.000000,0.032040,0.000000,-5.617045,0.498732,0.498732,0.498728,0.498728,7.461952,89.316009,6.034865,22.329291,22.329291,22.328714,22.328714,1.508736,1.508736,1.508697,1.508697
1.660000,0.716435,0.000000,8.725001,0.669461,0.000000,3.929728,3.986344,0.000000,0.052328,0.000000,0.000000,0.052360,0.000000,10.000000,0.000000,0.000139,0.000000,0.031739,0.000000,-5.597573,0.498765,0.498765,0.498761,0.498761,7.462947,89.333878,6.036073,22.333745,22.333745,22.333194,22.333194,1.509037,1.509037,1.509000,1.509000
1.670000,0.723130,0.000000,8.764298,0.669778,0.000000,3.873752,3.931229,0.000000,0.052329,0.000000,0.000000,0.052360,0.000000,10.000000,0.000000,0.000133,0.000000,0.031502,0.000000,-5.576983,0.498852,0.498852,0.498848,0.498848,7.465542,89.380473,6.039221,22.345382,22.345382,22.344855,22.344855,1.509823,1.509823,1.509787,1.509787
1.680000,0.729828,0.000000,8.803035,0.670093,0.000000,3.817982,3.876340,0.000000,0.052331,0.000000,0.000000,0.052360,0.000000,10.000000,0.000000,0.000127,0.000000,0.031327,0.000000,-5.555306,0.498991,0.498991,0.498987,0.498987,7.469699,89.455136,6.044266,22.364036,22.364036,22.363532,22.363532,1.511084,1.511084,1.511049,1.511049
1.690000,0.736528,0.000000,8.841215,0.670407,0.000000,3.762429,3.821691,0.000000,0.052332,0.000000,0.000000,0.052360,0.000000,10.000000,0.000000,0.000122,0.000000,0.031212,0.000000,-5.532573,0.499180,0.499180,0.499177,0.499177,7.475381,89.557221,6.051164,22.389547,22.389547,22.389064,22.389064,1.512807,1.512807,1.512775,1.512775
1.700000,0.743233,0.000000,8.878840,0.670719,0.000000,3.707104,3.767291,0.000000,0.052333,0.000000,0.000000,0.052360,0.000000,10.000000,0.000000,0.000117,0.000000,0.031156,0.000000,-5.508815,0.499420,0.499420,0.499416,0.499416,7.482551,89.686099,6.059872,22.421756,22.421756,22.421294,22.421294,1.514983,1.514983,1.514952,1.514952
1.710000,0.749940,0.000000,8.915911,0.671030,0.000000,3.652015,3.713152,0.000000,0.052334,0.000000,0.000000,0.052360,0.000000,10.000000,0.000000,0.000111,0.000000,0.031157,0.000000,-5.484063,0.499707,0.499707,0.499704,0.499704,7.491173,89.841154,6.070348,22.460510,22.460510,22.460068,22.460068,1.517602,1.517602,1.517572,1.517572
1.720000,0.756650,0.000000,8.952431,0.671342,0.000000,3.597175,3.659285,0.000000,0.052335,0.000000,0.000000,0.052360,0.000000,10.000000,0.000000,0.000107,0.000000,0.031213,0.000000,-5.458345,0.500042,0.500042,0.500039,0.500039,7.501210,90.021787,6.082553,22.505658,22.505658,22.505235,22.505235,1.520653,1.520653,1.520624,1.520624
1.730000,0.763363,0.000000,8.988402,0.671654,0.000000,3.542591,3.605700,0.000000,0.052337,0.000000,0.000000,0.052360,0.000000,10.000000,0.000000,0.000102,0.000000,0.031323,0.000000,-5.431693,0.500422,0.500422,0.500419,0.500419,7.512629,90.227409,6.096447,22.557055,22.557055,22.556650,22.556650,1.524125,1.524125,1.524098,1.524098
1.740000,0.770080,0.000000,9.023828,0.671967,0.000000,3.488274,3.552407,0.000000,0.052338,0.000000,0.000000,0.052360,0.000000,10.000000,0.000000,0.000098,0.000000,0.031486,0.000000,-5.404133,0.500847,0.500847,0.500844,0.500844,7.525392,90.457445,6.111990,22.614555,22.614555,22.614167,22.614167,1.528010,1.528010,1.527984,1.527984
1.750000,0.776800,0.000000,9.058711,0.672282,0.000000,3.434233,3.499417,0.000000,0.052339,0.000000,0.000000,0.052360,0.000000,10.000000,0.000000,0.000093,0.000000,0.031700,0.000000,-5.375696,0.501315,0.501315,0.501312,0.501312,7.539467,90.711333,6.129144,22.678019,22.678019,22.677648,22.677648,1.532299,1.532299,1.532273,1.532273
1.760000,0.783522,0.000000,9.093053,0.672599,0.000000,3.380476,3.446739,0.000000,0.052339,0.000000,0.000000,0.052360,0.000000,10.000000,0.000000,0.000089,0.000000,0.031963,0.000000,-5.346410,0.501825,0.501825,0.501823,0.501823,7.554818,90.988521,6.147873,22.747308,22.747308,22.746953,22.746953,1.536980,1.536980,1.536956,1.536956
